{"countrylist":

	[
	    {"name":"Andorra", "latitude":"42.546245", "longitude":"1.601554"}, 
	    {"name":"United Arab Emirates", "latitude":"23.424076", "longitude":"53.847818"},
	    {"name":"Afghanistan", "latitude":"33.93911", "longitude":"67.709953"},
	    {"name":"Antigua and Barbuda", "latitude":"17.060816", "longitude":"-61.796428"},
	    {"name":"Anguilla", "latitude":"18.220554", "longitude":"Anguilla"},
	    {"name":"Albania", "latitude":"41.153332", "longitude":"20.168331"},
	    {"name":"Armenia", "latitude":"40.069099", "longitude":"45.038189"},
	    {"name":"Netherlands Antilles", "latitude":"12.226079", "longitude":"-69.060087"}, 
	    {"name":"Angola", "latitude":"-11.202692", "longitude":"17.873887"},
	    {"name":"Antarctica", "latitude":"-75.250973", "longitude":"-0.071389"},
	    {"name":"Argentina", "latitude":"-38.416097", "longitude":"-63.616672"},
	    {"name":"American Samoa", "latitude":"-14.270972", "longitude":"-170.132217"},
	    {"name":"Austria", "latitude":"47.516231", "longitude":"14.550072"},
	    {"name":"Australia", "latitude":"-25.274398", "longitude":"133.775136"},
	   	{"name":"Aruba", "latitude":"12.52111", "longitude":"-69.968338"}, 
	    {"name":"Azerbaijan", "latitude":"40.143105", "longitude":"47.576927"},
	    {"name":"Bosnia and Herzegovina", "latitude":"43.915886", "longitude":"17.679076"},
	    {"name":"Barbados", "latitude":"13.193887", "longitude":"-59.543198"},
	    {"name":"Bangladesh", "latitude":"23.684994", "longitude":"90.356331"},
	    {"name":"Belgium", "latitude":"50.503887", "longitude":"4.469936"},
	    {"name":"Burkina Faso", "latitude":"12.238333", "longitude":"-1.561593"},
	    {"name":"Bulgaria", "latitude":"42.733883", "longitude":"25.48583"}, 
	    {"name":"Bahrain", "latitude":"25.930414", "longitude":"50.637772"},
	    {"name":"Burundi", "latitude":"-3.373056", "longitude":"29.918886"},
	    {"name":"Benin", "latitude":"9.30769", "longitude":"2.315834"},
	    {"name":"Bermuda", "latitude":"32.321384", "longitude":"-64.75737"},
	    {"name":"Brunei", "latitude":"4.535277", "longitude":"114.727669"},
	    {"name":"Bolivia", "latitude":"-16.290154", "longitude":"-63.588653"},
	   	{"name":"Brazil", "latitude":"-14.235004", "longitude":"-51.92528"}, 
	   	{"name":"", "latitude":"", "longitude":""}, 
	    {"name":"", "latitude":"", "longitude":""},
	    {"name":"", "latitude":"", "longitude":""},
	    {"name":"", "latitude":"", "longitude":""},
	    {"name":"", "latitude":"", "longitude":""},
	    {"name":"", "latitude":"", "longitude":""},
	    {"name":"", "latitude":"", "longitude":""},
	    {"name":"", "latitude":"", "longitude":""}, 
	    {"name":"", "latitude":"", "longitude":""},
	    {"name":"", "latitude":"", "longitude":""},
	    {"name":"", "latitude":"", "longitude":""},
	    {"name":"", "latitude":"", "longitude":""},
	    {"name":"", "latitude":"", "longitude":""},
	    {"name":"", "latitude":"", "longitude":""},
	   	    {"name":"", "latitude":"", "longitude":""}, 
	    {"name":"", "latitude":"", "longitude":""},
	    {"name":"", "latitude":"", "longitude":""},
	    {"name":"", "latitude":"", "longitude":""},
	    {"name":"", "latitude":"", "longitude":""},
	    {"name":"", "latitude":"", "longitude":""},
	    {"name":"", "latitude":"", "longitude":""},
	    {"name":"", "latitude":"", "longitude":""}, 
	    {"name":"", "latitude":"", "longitude":""},
	    {"name":"", "latitude":"", "longitude":""},
	    {"name":"", "latitude":"", "longitude":""},
	    {"name":"", "latitude":"", "longitude":""},
	    {"name":"", "latitude":"", "longitude":""},
	    {"name":"", "latitude":"", "longitude":""},
	   	    {"name":"", "latitude":"", "longitude":""}, 
	    {"name":"", "latitude":"", "longitude":""},
	    {"name":"", "latitude":"", "longitude":""},
	    {"name":"", "latitude":"", "longitude":""},
	    {"name":"", "latitude":"", "longitude":""},
	    {"name":"", "latitude":"", "longitude":""},
	    {"name":"", "latitude":"", "longitude":""},
	    {"name":"", "latitude":"", "longitude":""}, 
	    {"name":"", "latitude":"", "longitude":""},
	    {"name":"", "latitude":"", "longitude":""},
	    {"name":"", "latitude":"", "longitude":""},
	    {"name":"", "latitude":"", "longitude":""},
	    {"name":"", "latitude":"", "longitude":""},
	    {"name":"", "latitude":"", "longitude":""},
	   	    {"name":"", "latitude":"", "longitude":""}, 
	    {"name":"", "latitude":"", "longitude":""},
	    {"name":"", "latitude":"", "longitude":""},
	    {"name":"", "latitude":"", "longitude":""},
	    {"name":"", "latitude":"", "longitude":""},
	    {"name":"", "latitude":"", "longitude":""},
	    {"name":"", "latitude":"", "longitude":""},
	    {"name":"", "latitude":"", "longitude":""}, 
	    {"name":"", "latitude":"", "longitude":""},
	    {"name":"", "latitude":"", "longitude":""},
	    {"name":"", "latitude":"", "longitude":""},
	    {"name":"", "latitude":"", "longitude":""},
	    {"name":"", "latitude":"", "longitude":""},
	    {"name":"", "latitude":"", "longitude":""},
	   	    {"name":"", "latitude":"", "longitude":""}, 
	    {"name":"", "latitude":"", "longitude":""},
	    {"name":"", "latitude":"", "longitude":""},
	    {"name":"", "latitude":"", "longitude":""},
	    {"name":"", "latitude":"", "longitude":""},
	    {"name":"", "latitude":"", "longitude":""},
	    {"name":"", "latitude":"", "longitude":""},
	    {"name":"", "latitude":"", "longitude":""}, 
	    {"name":"", "latitude":"", "longitude":""},
	    {"name":"", "latitude":"", "longitude":""},
	    {"name":"", "latitude":"", "longitude":""},
	    {"name":"", "latitude":"", "longitude":""},
	    {"name":"", "latitude":"", "longitude":""},
	    {"name":"", "latitude":"", "longitude":""},
	   	    {"name":"", "latitude":"", "longitude":""}, 
	    {"name":"", "latitude":"", "longitude":""},
	    {"name":"", "latitude":"", "longitude":""},
	    {"name":"", "latitude":"", "longitude":""},
	    {"name":"", "latitude":"", "longitude":""},
	    {"name":"", "latitude":"", "longitude":""},
	    {"name":"", "latitude":"", "longitude":""},
	    {"name":"", "latitude":"", "longitude":""}, 
	    {"name":"", "latitude":"", "longitude":""},
	    {"name":"", "latitude":"", "longitude":""},
	    {"name":"", "latitude":"", "longitude":""},
	    {"name":"", "latitude":"", "longitude":""},
	    {"name":"", "latitude":"", "longitude":""},
	    {"name":"", "latitude":"", "longitude":""},
	   	    {"name":"", "latitude":"", "longitude":""}, 
	    {"name":"", "latitude":"", "longitude":""},
	    {"name":"", "latitude":"", "longitude":""},
	    {"name":"", "latitude":"", "longitude":""},
	    {"name":"", "latitude":"", "longitude":""},
	    {"name":"", "latitude":"", "longitude":""},
	    {"name":"", "latitude":"", "longitude":""},
	    {"name":"", "latitude":"", "longitude":""}, 
	    {"name":"", "latitude":"", "longitude":""},
	    {"name":"", "latitude":"", "longitude":""},
	    {"name":"", "latitude":"", "longitude":""},
	    {"name":"", "latitude":"", "longitude":""},
	    {"name":"", "latitude":"", "longitude":""},
	    {"name":"", "latitude":"", "longitude":""},
	   	    {"name":"", "latitude":"", "longitude":""}, 
	    {"name":"", "latitude":"", "longitude":""},
	    {"name":"", "latitude":"", "longitude":""},
	    {"name":"", "latitude":"", "longitude":""},
	    {"name":"", "latitude":"", "longitude":""},
	    {"name":"", "latitude":"", "longitude":""},
	    {"name":"", "latitude":"", "longitude":""},
	    {"name":"", "latitude":"", "longitude":""}, 
	    {"name":"", "latitude":"", "longitude":""},
	    {"name":"", "latitude":"", "longitude":""},
	    {"name":"", "latitude":"", "longitude":""},
	    {"name":"", "latitude":"", "longitude":""},
	    {"name":"", "latitude":"", "longitude":""},
	    {"name":"", "latitude":"", "longitude":""},
	   	    {"name":"", "latitude":"", "longitude":""}, 
	    {"name":"", "latitude":"", "longitude":""},
	    {"name":"", "latitude":"", "longitude":""},
	    {"name":"", "latitude":"", "longitude":""},
	    {"name":"", "latitude":"", "longitude":""},
	    {"name":"", "latitude":"", "longitude":""},
	    {"name":"", "latitude":"", "longitude":""},
	    {"name":"", "latitude":"", "longitude":""}, 
	    {"name":"", "latitude":"", "longitude":""},
	    {"name":"", "latitude":"", "longitude":""},
	    {"name":"", "latitude":"", "longitude":""},
	    {"name":"", "latitude":"", "longitude":""},
	    {"name":"", "latitude":"", "longitude":""},
	    {"name":"", "latitude":"", "longitude":""},
	   	    {"name":"", "latitude":"", "longitude":""}, 
	    {"name":"", "latitude":"", "longitude":""},
	    {"name":"", "latitude":"", "longitude":""},
	    {"name":"", "latitude":"", "longitude":""},
	    {"name":"", "latitude":"", "longitude":""},
	    {"name":"", "latitude":"", "longitude":""},
	    {"name":"", "latitude":"", "longitude":""},
	    {"name":"", "latitude":"", "longitude":""}, 
	    {"name":"", "latitude":"", "longitude":""},
	    {"name":"", "latitude":"", "longitude":""},
	    {"name":"", "latitude":"", "longitude":""},
	    {"name":"", "latitude":"", "longitude":""},
	    {"name":"", "latitude":"", "longitude":""},
	    {"name":"", "latitude":"", "longitude":""},
	]


}